"";"id";"type";"latitude";"longitude";"streetName";"streetNumber";"altitude";"nearbyStations";"total_slots"
0;1;"BIKE";41.397952000000004;2.180042;"Gran Via Corts Catalanes";"760";21;"24, 369, 387, 426";27
1;2;"BIKE";41.39553;2.17706;"Roger de Flor/ Gran Vía";"126";21;"360, 368, 387, 414";27
2;3;"BIKE";41.394071999999994;2.183441;"Nàpols";"82";22;"4, 6, 119, 419";26
3;4;"BIKE";41.39347;2.18149;"Ribes";"13";21;"3, 5, 359, 419";18
4;5;"BIKE";41.391075;2.180223;"Pg Lluís Companys";"11";16;"6, 7, 359, 418";36
5;6;"BIKE";41.391349;2.1806099999999997;"Pg Lluís Companys";"18";16;"5, 8, 359, 419";35
6;7;"BIKE";41.388856;2.183251;"Pg Lluís Companys";"1";16;"8, 118, 389";26
7;8;"BIKE";41.389088;2.183568;"Pg Lluís Companys";"2";11;"6, 118, 389";21
8;9;"BIKE";41.384532;2.184921;"Marquès de l'Argentera";"13";11;"14, 40, 115, 389, 390";24
9;11;"BIKE";41.381689;2.193914;"Passeig Marítim";"19";1;"116, 124, 125, 396";21
10;12;"BIKE";41.384538;2.195679;"Pg Marítim Barceloneta";"23";0;"11, 13, 116, 396";28
11;13;"BIKE";41.386860999999996;2.195761;"Avinguda Litoral";"16";1;"11, 12, 46, 69";33
12;14;"BIKE";41.384675;2.1850389999999997;"Avinguda del Marques Argentera";"15";11;"9, 40, 115, 389, 390";25
13;15;"BIKE";41.394812;2.171189;"Girona";"68";40;"23, 25, 362, 413";16
14;16;"BIKE";41.398270000000004;2.1867080000000003;"Av. Meridiana";"47";18;"17, 44, 48, 372";19
15;17;"BIKE";41.398237;2.186711;"Av. Meridiana";"47";18;"16, 48, 211, 372";18
16;18;"BIKE";41.406086;2.1741669999999997;"Rosselló";"453";49;"19, 28, 120, 370";25
17;19;"BIKE";41.403282;2.1707259999999997;"Rosselló";"354";49;"18, 22, 29, 370";26
18;20;"BIKE";41.410166;2.175759;"Cartagena";"308";59;"21, 28, 164, 177, 278";20
19;21;"BIKE";41.410897;2.17402;"Sant Antoni Maria Claret";"214";59;"20, 28, 164, 278";21
20;22;"BIKE";41.401684;2.17568;"Sardenya";"292";28;"29, 120, 369, 370";19
21;23;"BIKE";41.392526000000004;2.171812;"Bruc";"45";42;"15, 360, 363, 413";25
22;24;"BIKE";41.400659000000005;2.1791110000000002;"Marina";"199";30;"1, 30, 369, 426";27
23;25;"BIKE";41.395179;2.168294;"Bruc";"102";42;"15, 123, 362, 413";20
24;26;"BIKE";41.407035;2.181981;"Dos Maig";"230";28;"120, 121, 177, 371";18
25;27;"BIKE";41.396881;2.164415;"Provença";"322";49;"123, 189, 224, 374";20
26;28;"BIKE";41.405421999999994;2.17064;"Sardenya";"362";45;"18, 20, 122, 277";23
27;29;"BIKE";41.401101000000004;2.170082;"Provença";"388";50;"19, 224, 360, 370";17
28;30;"BIKE";41.402046;2.182286;"Diagonal";"231";28;"24, 218, 369, 371";20
29;31;"BIKE";41.37481;2.18895;"Plaça del Mar";"72";1;"33, 39, 41, 124";17
30;32;"BIKE";41.373698;2.188927;"Plaça del Mar";"1";1;"31, 33, 124, 400";27
31;33;"BIKE";41.376862;2.190773;"Pontevedra";"58B";1;"31, 41, 124, 424";18
32;34;"BIKE";41.387074;2.175247;"Sant Pere Més Alt";"4";16;"36, 105, 359, 380";17
33;35;"BIKE";41.413592;2.2211529999999997;"Sant Ramon de Penyafort";"1";1;"157, 158, 159, 160";25
34;36;"BIKE";41.385151;2.176804;"Catedral";"6";16;"34, 35, 53, 358, 380";20
35;37;"BIKE";41.381226;2.1818880000000003;"Pl. Antonio López";"";5;"38, 115, 126, 401";23
36;38;"BIKE";41.381129;2.186397;"Pl. Pau Vila";"";1;"39, 40, 124, 126";21
37;39;"BIKE";41.381046000000005;2.1865759999999996;"Pl. Pau Vila";"";1;"38, 40, 124, 126";16
38;40;"BIKE";41.382335;2.187093;"Doctor Aiguader";"2";1;"37, 38, 116, 402";15
39;41;"BIKE";41.379326;2.189906;"Pl. Poeta Boscà/Atlàntida";"";1;"31, 39, 124, 424";18
40;42;"BIKE";41.404511;2.189881;"Ciutat de Granada";"168";18;"43, 44, 133, 286";24
41;43;"BIKE";41.405409999999996;2.18712;"Av Meridiana";"80";18;"30, 42, 44, 218";22
42;44;"BIKE";41.402165000000004;2.187136;"Av Meridiana";"66";18;"30, 42, 43, 286";18
43;45;"BIKE";41.391401;2.1893990000000003;"Marina";"66";18;"47, 118, 392, 409";15
44;46;"BIKE";41.388359;2.193004;"Ramon trias Fargas";"19";1;"47, 69, 392, 407";28
45;47;"BIKE";41.389076;2.192104;"Ramon Trias Fargas";"";1;"13, 46, 392, 407";34
46;48;"BIKE";41.395261;2.18708;"Meridiana";"40";18;"16, 118, 149, 211";19
47;49;"BIKE";41.391059999999996;2.196457;"Rosa Sensat en front";"20";1;"46, 117, 163, 396";19
48;50;"BIKE";41.375;2.17035;"Av. Paral.lel";"54";1;"114, 187, 232, 233";22
49;51;"BIKE";41.384054;2.169019;"Pl. Vicenç Martorell";"";32;"55, 58, 59, 63";15
50;53;"BIKE";41.385227;2.1738779999999998;"Pl. Carles Pi i Sunyer";"";32;"34, 36, 380, 395";18
51;54;"BIKE";41.377635;2.170586;"Sant Oleguer";"2";24;"114, 187, 388, 415";19
52;55;"BIKE";41.381153999999995;2.1734970000000002;"La Rambla";"80";24;"54, 378, 379, 395";17
53;56;"BIKE";41.377010999999996;2.175834;"Portal de Santa Madrona";"2";5;"54, 57, 378, 425";24
54;57;"BIKE";41.376758;2.177093;"La Rambla";"2";5;"56, 114, 361, 378";22
55;58;"BIKE";41.382822;2.167154;"Plaça dels Àngels";"1";24;"51, 59, 381, 388";19
56;59;"BIKE";41.382781;2.1672029999999998;"Plaça dels Àngels";"2";24;"51, 58, 381, 388";19
57;60;"BIKE";41.390349;2.16424;"Rambla Catalunya";"47";41;"61, 66, 80, 364";25
58;61;"BIKE";41.390143;2.164946;"Rambla Catalunya";"42";41;"60, 80, 287, 364";23
59;62;"BIKE";41.387142;2.168858;"Pl. Catalunya";"5";32;"63, 64, 65, 395";21
60;63;"BIKE";41.386439;2.1694169999999997;"Pl. Catalunya";"7";32;"62, 64, 65, 395";27
61;64;"BIKE";41.387469;2.169048;"Pl. Catalunya";"";32;"62, 63, 65, 395";20
62;65;"BIKE";41.387678;2.169587;"Pl. Catalunya";"";32;"62, 63, 64, 395";19
63;66;"BIKE";41.389097;2.167933;"Gran Via";"609";32;"61, 64, 79, 287";14
64;67;"BIKE";41.385011999999996;2.145843;"Rocafort";"214";51;"75, 87, 89, 365";21
65;68;"BIKE";41.395364;2.157356;"Rambla Catalunya";"133";59;"72, 73, 92, 374";23
66;69;"BIKE";41.386814;2.195689;"Avda. Litoral";"";1;"12, 13, 125, 397";30
67;70;"BIKE";41.380347;2.160695;"Comte Urgell";"23";35;"71, 91, 113, 261";19
68;71;"BIKE";41.381931;2.162969;"Floridablanca";"145";35;"70, 78, 113, 148";19
69;72;"BIKE";41.392716;2.158811;"Provença";"215";55;"68, 73, 92, 374";24
70;73;"BIKE";41.392278000000005;2.156183;"Enric Granados";"93";59;"68, 72, 76, 92";19
71;74;"BIKE";41.390062;2.143272;"Josep Tarradellas";"133";51;"101, 102, 109, 366";19
72;75;"BIKE";41.385081;2.142868;"Josep Tarradellas";"58";51;"67, 99, 197, 365";20
73;76;"BIKE";41.391751;2.153123;"Còrsega";"216";45;"72, 73, 88, 90";30
74;78;"BIKE";41.385598;2.16338;"Pl. Universitat";"";41;"71, 79, 209, 406";26
75;79;"BIKE";41.38547;2.1633299999999998;"Pl. Universitat";"";41;"78, 209, 287, 406";21
76;80;"BIKE";41.389687;2.159999;"Enric Granados";"35";41;"60, 209, 385, 394";19
77;81;"BIKE";41.378915;2.1491740000000004;"Vilamarí davant";"61";44;"82, 95, 97, 384";20
78;82;"BIKE";41.379016;2.1537990000000002;"Rocafort";"72";40;"67, 81, 111, 112";33
79;83;"BIKE";41.384075;2.153654;"Comte Borrell";"177";45;"87, 89, 110, 111";26
80;84;"BIKE";41.383047;2.157033;"Comte d'Urgell";"75 B";35;"78, 91, 110, 209";21
81;85;"BIKE";41.375076;2.159046;"Paral·lel";"146";35;"112, 129, 235, 236";22
82;86;"BIKE";41.375440000000005;2.1630000000000003;"Viladomat";"2";35;"85, 187, 235, 373";26
83;87;"BIKE";41.383156;2.1485060000000002;"Mallorca";"41";44;"67, 111, 191, 384";20
84;88;"BIKE";41.393547;2.150764;"Londres";"101";59;"76, 109, 220, 350";12
85;89;"BIKE";41.387953;2.150169;"Rosselló";"101";45;"76, 90, 110, 365";23
86;90;"BIKE";41.38834;2.150825;"Rosselló";"108";45;"76, 89, 365, 385";14
87;91;"BIKE";41.380452000000005;2.158403;"Comte Borrell";"119";35;"70, 112, 113, 261";29
88;92;"BIKE";41.39386;2.160237;"Provença";"241";50;"72, 73, 364, 374";13
89;93;"BIKE";41.375454;2.149786;"Gran Via";"375";40;"94, 95, 96, 420";17
90;94;"BIKE";41.375619;2.149889;"Gran Via";"375";40;"93, 95, 96, 420";21
91;95;"BIKE";41.376428000000004;2.147734;"Tarragona";"103";44;"93, 96, 97, 186";31
92;96;"BIKE";41.374152;2.148154;"Gran Via";"361";61;"93, 95, 186, 420";20
93;97;"BIKE";41.378124;2.1453889999999998;"Tarragona";"141";44;"81, 95, 100, 186";20
94;98;"BIKE";41.380499;2.141153;"Viriat";"45";44;"75, 99, 100, 421";21
95;99;"BIKE";41.380632;2.141548;"Viriat";"53";44;"98, 100, 195, 421";15
96;100;"BIKE";41.379135;2.1440900000000003;"Tarragona";"159";44;"97, 98, 99, 384";17
97;101;"BIKE";41.39243;2.14321;"Av. Diagonal";"602";69;"74, 102, 319, 366";26
98;102;"BIKE";41.392179999999996;2.14213;"Av. Diagonal";"612";69;"74, 102, 319, 366";24
99;103;"BIKE";41.409856;2.188217;"Aragó";"629";17;"26, 104, 127, 132";17
100;104;"BIKE";41.410821;2.1873650000000002;"C/València";"621";17;"26, 103, 127, 177";22
101;105;"BIKE";41.389069;2.1734240000000002;"PL. Urquinaona";"9";32;"65, 359, 363, 412";16
102;106;"BIKE";41.405587;2.162317;"Pl. Joanic";"s/n";59;"108, 122, 226, 231";19
103;107;"BIKE";41.398298;2.1531279999999997;"Travessera de Gracia";"92";59;"68, 219, 220, 223";18
104;108;"BIKE";41.402314000000004;2.164961;"Indústria";"10";59;"29, 122, 224, 226";20
105;109;"BIKE";41.390981;2.14737;"C/ Londres";"53";51;"89, 101, 350, 365";18
106;110;"BIKE";41.385377000000005;2.154878;"Avda. Roma";"136";43;"83, 84, 209, 385";20
107;111;"BIKE";41.381231;2.152755;"Calabria";"137";41;"81, 82, 83, 262";17
108;112;"BIKE";41.377644000000004;2.15725;"Floridablanca";"49";40;"82, 91, 94, 113";17
109;113;"BIKE";41.37742;2.1647;"Sant Pau";"51";30;"70, 112, 129, 427";24
110;114;"BIKE";41.376801;2.1730389999999997;"Pl. Jean Genet";"1";24;"50, 54, 56, 425";16
111;115;"BIKE";41.38377;2.18424;"Marqués d'Argentera";"3";1;"14, 37, 401";19
112;116;"BIKE";41.383718;2.191414;"Salvat Papasseit";"72";11;"11, 13, 38, 39";27
113;117;"BIKE";41.390665999999996;2.1970240000000003;"Rosa Sensat";"12";1;"46, 49, 163, 396";20
114;118;"BIKE";41.392212;2.187847;"Sardenya";"3";18;"7, 8, 45, 149";22
115;119;"BIKE";41.396684;2.1824470000000002;"Sardenya";"178";21;"3, 372, 387, 426";19
116;120;"BIKE";41.404666;2.176515;"Lepant";"278";28;"18, 22, 121, 370";20
117;121;"BIKE";41.406293;2.178689;"Castillejos";"258";28;"18, 26, 120, 371";18
118;122;"BIKE";41.405435;2.16624;"Nàpols";"344";59;"19, 106, 108, 277";19
119;123;"BIKE";41.398013;2.166978;"Girona";"142";45;"27, 189, 224, 362";17
120;124;"BIKE";41.370296999999994;2.187808;"Passeig Joan de Borbó";"s/n";5;"31, 32, 41, 400";25
121;125;"BIKE";41.384426;2.195595;"Passeig Maritim";"31";1;"12, 13, 69, 398";19
122;126;"BIKE";41.380641;2.182243;"Passeig de Colom";"";5;"37, 115, 377, 402";20
123;127;"BIKE";41.412321999999996;2.19142;"Aragó";"661";17;"103, 104, 128, 238";26
124;128;"BIKE";41.415581;2.19581;"Rambla Guipúscoa";"43";13;"127, 130, 135, 238";28
125;129;"BIKE";41.37709;2.1612400000000003;"Manso";"46";35;"91, 112, 113, 148";24
126;130;"BIKE";41.419905;2.201573;"Rambla Guipúscoa";"103";9;"127, 128, 131, 139";24
127;131;"BIKE";41.422808;2.206036;"Rambla Guipúscoa";"158";9;"130, 139, 316, 317";27
128;132;"BIKE";41.408439;2.192173;"Pl. Valentí Amirall";"";13;"42, 103, 133, 141";22
129;133;"BIKE";41.407410999999996;2.192819;"Gran Vía";"902";16;"42, 43, 132, 141";16
130;134;"BIKE";41.411433;2.1987349999999997;"Bac de Roda";"157";10;"135, 136, 141, 145";21
131;135;"BIKE";41.411908000000004;2.197936;"Gran Vía";"981";13;"136, 137, 141";19
132;136;"BIKE";41.414226;2.201734;"Gran Vía";"1062";9;"137, 138, 146";26
133;137;"BIKE";41.414758;2.201538;"Gran Vía, 1041/ Selva de Mar";"1041";9;"130, 136, 138, 146";26
134;138;"BIKE";41.416965999999995;2.205397;"Gran Vía";"1118";9;"136, 137, 139, 147";22
135;139;"BIKE";41.418034999999996;2.206023;"Gran Vía";"1131";9;"130, 131, 138, 147";27
136;140;"BIKE";41.38063;2.15614;"Viladomat";"122";41;"82, 91, 111, 262";26
137;141;"BIKE";41.40902;2.194896;"Gran Via";"940";13;"42, 132, 133, 135";27
138;142;"BIKE";41.400503;2.192511;"Sancho de Ávila";"104";16;"42, 44, 143, 211";32
139;143;"BIKE";41.40325;2.1960599999999997;"Sancho de Ávila";"170";16;"42, 144, 152, 153, 428";25
140;144;"BIKE";41.40562;2.1976400000000003;"Castella";"28";16;"42, 143, 150, 286";24
141;145;"BIKE";41.40982;2.202904;"Pere IV";"301";9;"135, 146, 150, 156";25
142;146;"BIKE";41.415191;2.2071110000000003;"Pere IV";"464";9;"136, 137, 138, 145";14
143;147;"BIKE";41.416018;2.2126580000000002;"Rambla Prim";"79";5;"146, 157, 158, 159";19
144;148;"BIKE";41.378436;2.1633240000000002;"Ronda Sant Pau";"79";79;"70, 113, 388, 415";23
145;149;"BIKE";41.395905;2.192958;"Pujades";"57B";11;"45, 48, 118, 409";26
146;150;"BIKE";41.406549;2.203112;"Espronceda";"124";10;"144, 145, 154, 155";24
147;151;"BIKE";41.40065;2.19719;"Pallars";"462";6;"152, 153, 211, 393, 428";21
148;152;"BIKE";41.39925;2.197421;"Pujades";"121";11;"143, 149, 153, 393";24
149;153;"BIKE";41.401778;2.2007689999999998;"Pujades";"173";10;"152, 154, 165, 393, 428";22
150;154;"BIKE";41.402454;2.2016560000000003;"Pujades";"191";10;"141, 153, 165, 382";24
151;155;"BIKE";41.406977000000005;2.207602;"Pujades";"311";10;"150, 156, 162, 382";32
152;156;"BIKE";41.409017;2.2088099999999997;"Diagonal";"46";5;"145, 155, 157, 159";25
153;157;"BIKE";41.412946999999996;2.217819;"C/ LLULL - RBLA. PRIM";"465";0;"35, 147, 158, 159, 160";25
154;158;"BIKE";41.411741;2.218546;"Rambla de Prim";"19";1;"35, 156, 157, 159, 160";24
155;159;"BIKE";41.410882;2.216703;"Avda. Diagonal";"26";5;"35, 156, 157, 158, 160";29
156;160;"BIKE";41.411026;2.219377;"Avda. d'Eduard Maristany";"1";1;"35, 156, 157, 158, 159";31
157;161;"BIKE";41.395009;2.196308;"Ramon Turro";"91";11;"49, 149, 163, 409";26
158;162;"BIKE";41.403908;2.208436;"Ramon Turro";"292";0;"155, 166, 167, 168";26
159;163;"BIKE";41.3942;2.20077;"Avda. Icaria";"202";11;"49, 117, 161, 172";25
160;164;"BIKE";41.41194;2.178037;"Independència";"379";33;"20, 21, 177, 280";25
161;165;"BIKE";41.399196;2.204253;"Carrer del Doctor Trueta";"221";0;"153, 154, 166, 173";21
162;166;"BIKE";41.400533;2.206539;"Bilbao";"11";10;"162, 165, 173, 174";24
163;167;"BIKE";41.402561;2.210538;"Bac de Roda";"11";0;"162, 166, 168, 176";20
164;168;"BIKE";41.405358;2.213677;"Selva de Mar";"0";0;"162, 167, 176, 178";25
165;169;"BIKE";41.389896;2.200055;"Avda. Litoral";"40";0;"11, 170, 172, 397";26
166;170;"BIKE";41.389732;2.199934;"Avda. Litoral";"40";1;"117, 169, 172, 397";26
167;171;"BIKE";41.391985999999996;2.2036990000000003;"Passeig Marítim de la Nova Icària";"83";0;"163, 169, 170, 172";25
168;172;"BIKE";41.391830999999996;2.203436;"Passeig Marítim de la Nova Icària";"83";0;"163, 169, 170, 171";27
169;173;"BIKE";41.398027;2.208982;"Avda. Litoral";"84";0;"166, 171, 174, 190";22
170;174;"BIKE";41.40061;2.210461;"Passeig de Garcia Fària";"21";0;"166, 173, 176, 178";24
171;175;"BIKE";41.406659999999995;2.2095599999999997;"Llull / Provençals";"309";10;"155, 156, 162, 167";23
172;176;"BIKE";41.402541;2.212641;"Passeig de Garcia Fària";"37";0;"167, 168, 174, 178";24
173;177;"BIKE";41.411089000000004;2.181119;"Rosselló";"557";0;"20, 121, 164, 280";26
174;178;"BIKE";41.405389;2.216212;"Passeig de Garcia Fària";"85";0;"162, 166, 167, 168";24
175;179;"BIKE";41.363510999999995;2.1367700000000003;"Pg. Zona Franca";"244";48;"184, 351, 352, 404";18
176;180;"BIKE";41.367779999999996;2.1392599999999997;"Gran Via";"181";50;"179, 181, 182, 183";24
177;181;"BIKE";41.36766;2.13911;"Gran Via";"180";50;"179, 180, 182, 183";23
178;182;"BIKE";41.371455;2.143882;"Gran Via";"273";61;"96, 180, 183, 420";24
179;183;"BIKE";41.372338;2.141875;"Gavà";"1";61;"181, 182, 185, 420";25
180;184;"BIKE";41.367504;2.134088;"Quetzal";"22";50;"179, 180, 185, 404";24
181;185;"BIKE";41.370459999999994;2.138994;"Gavà";"81";50;"180, 181, 184, 404";17
182;186;"BIKE";41.375571;2.143812;"Consell de Cent";"6";44;"95, 96, 210, 420";15
183;187;"BIKE";41.376858;2.169811;"Carrer de Sant Pau";"89";24;"50, 54, 416, 427";16
184;188;"BIKE";41.375471000000005;2.135543;"Pl. Sants (Ps. S. Antoni)";"0";45;"210, 313, 354, 421";26
185;189;"BIKE";41.396918;2.166163;"Bruc";"130";50;"25, 27, 123, 224";27
186;190;"BIKE";41.39606;2.2078029999999997;"Avinguda Litoral";"72";0;"165, 171, 172, 173";27
187;191;"BIKE";41.382564;2.149094;"Rocafort";"167";44;"81, 87, 111, 384";26
188;192;"BIKE";41.378629;2.133467;"Joan Güell";"50";40;"188, 193, 194, 314";18
189;193;"BIKE";41.381311;2.1289119999999997;"Figols";"1";46;"192, 194, 199, 312";25
190;194;"BIKE";41.381013;2.132319;"Joan Güell";"98";40;"192, 193, 196, 200";26
191;195;"BIKE";41.381888000000004;2.1354330000000004;"Vallespir";"130";45;"192, 194, 196, 367";25
192;196;"BIKE";41.383241;2.139363;"Berlín";"38";30;"197, 201";22
193;197;"BIKE";41.387295;2.141539;"Gelabert";"1";57;"75, 196, 201, 367";24
194;198;"BIKE";41.384426;2.133682;"Vallespir";"194";58;"196, 200, 201, 205";24
195;199;"BIKE";41.381820000000005;2.126933;"Mejía Lequerica";"2";46;"193, 200, 202, 312";26
196;200;"BIKE";41.383756;2.1312729999999998;"Can bruixa";"1";60;"193, 194, 196, 198";22
197;201;"BIKE";41.387787;2.134341;"Numància";"136";58;"198, 206, 207, 208";31
198;202;"BIKE";41.385331;2.128737;"Carrer de les Corts";"20";60;"199, 200, 203, 205";27
199;203;"BIKE";41.388742;2.128503;"Avda. Diagonal";"664";60;"204, 205, 212, 284";33
200;204;"BIKE";41.388011;2.125593;"Avda. Diagonal";"668";60;"202, 203, 205, 212";31
201;205;"BIKE";41.387465;2.1308380000000002;"Europa";"25";60;"198, 202, 203, 284";30
202;206;"BIKE";41.389845;2.1328400000000003;"Avda. Diagonal";"650";60;"201, 207, 208, 284";29
203;207;"BIKE";41.390828000000006;2.1366650000000003;"Avda. Diagonal";"634";57;"201, 204, 206, 208";20
204;208;"BIKE";41.391451;2.139116;"Avda. Diagonal";"630";57;"201, 206, 207, 366";32
205;209;"BIKE";41.385754999999996;2.161004;"Diputació";"200";41;"71, 78, 84, 261";27
206;210;"BIKE";41.37453;2.142356;"Vilardell";"18";50;"183, 185, 186, 421";26
207;211;"BIKE";41.398848;2.1902909999999998;"Sancho de Ávila";"60";18;"16, 44, 48, 142";32
208;212;"BIKE";41.39239;2.130945;"Av. Sarrià";"163";82;"203, 206, 284, 325";26
209;213;"BIKE";41.393783;2.135078;"Sant Fe de Nou Mèxic";"2";79;"207, 208, 214, 215";32
210;214;"BIKE";41.395251;2.133541;"José de Agulló";"19";85;"207, 208, 212, 213";18
211;215;"BIKE";41.39412;2.138146;"Carrer de Ganduxer";"29";79;"102, 213, 214, 324";17
212;216;"BIKE";41.396809000000005;2.144534;"Madrazo";"131";69;"101, 217, 219, 319";26
213;217;"BIKE";41.398463;2.143924;"Rector Ubach";"24";69;"102, 216, 219, 319";26
214;218;"BIKE";41.404114;2.183203;"Consell de Cent";"566";28;"30, 43, 369, 371";26
215;219;"BIKE";41.397812;2.147585;"Carre Laforja";"74";69;"107, 216, 217, 220";26
216;220;"BIKE";41.396229;2.151482;"Tuset";"19";59;"68, 88, 107, 219";24
217;221;"BIKE";41.402535;2.152519;"Gran de Gràcia";"155";71;"107, 222, 229, 230";23
218;222;"BIKE";41.40124;2.157483;"Carrer del Canó";"1";71;"107, 221, 226, 229";27
219;223;"BIKE";41.398311;2.159865;"Carrer de Bonavista";"14";50;"68, 224, 225, 374";31
220;224;"BIKE";41.399945;2.164389;"Girona";"176";55;"27, 108, 123, 189";21
221;225;"BIKE";41.38482;2.15057;"Mallorca";"84";44;"83, 87, 89, 191";27
222;226;"BIKE";41.403465000000004;2.161096;"Montmany";"1";59;"106, 108, 122, 231";25
223;227;"BIKE";41.407837;2.158678;"Torrent de Les Flors";"102";59;"106, 228, 231";24
224;228;"BIKE";41.406940000000006;2.1557939999999998;"Pl. Del Nord";"5";71;"106, 227, 229, 230";20
225;229;"BIKE";41.405107;2.156874;"Carrer de la Santacreu";"2";71;"106, 226, 227, 228";28
226;230;"BIKE";41.405986;2.1516330000000004;"C. De Nil Fabra";"16";71;"221, 222, 228, 229";23
227;231;"BIKE";41.407202000000005;2.1634759999999997;"Pi i Margall";"38";82;"106, 122, 227, 276";21
228;232;"BIKE";41.373509000000006;2.171002;"Vilà i Vilà";"45";1;"50, 233, 234, 427";27
229;233;"BIKE";41.371965;2.166871;"Nou de la Rambla";"164";1;"50, 232, 234, 427";26
230;234;"BIKE";41.371515;2.162166;"Passeig de l'Exposició";"30";44;"85, 233, 235, 236";23
231;235;"BIKE";41.375065;2.165839;"Paral.lel";"98";40;"85, 129, 234, 236";25
232;236;"BIKE";41.375127;2.1527689999999997;"Avinguda Paral.lel";"194";47;"85, 94, 235, 237";22
233;237;"BIKE";41.372890999999996;2.154471;"Rius i Taulet";"4";67;"85, 93, 234, 236";25
234;238;"BIKE";41.415684000000006;2.190986;"Espronceda";"298";17;"127, 240, 248, 289";25
235;239;"BIKE";41.417322999999996;2.184534;"Indústria";"329";18;"240, 241, 248, 315";25
236;240;"BIKE";41.417763;2.187558;"Josep Estivill";"32";18;"128, 238, 248, 289";25
237;241;"BIKE";41.419337;2.180482;"Teodor Llorente";"2";40;"239, 240, 248, 315";30
238;242;"BIKE";41.424451;2.177284;"Ramon Albó";"1";37;"241, 243, 244, 291";24
239;243;"BIKE";41.423939000000004;2.181298;"Alenxadre Galí";"1";37;"241, 242, 244, 247";23
240;244;"BIKE";41.426896;2.178511;"Felip II";"214";47;"242, 243, 251, 300";24
241;246;"BIKE";41.422844;2.1866369999999997;"Garcilaso";"77";18;"247, 249, 250, 251";17
242;247;"BIKE";41.421991999999996;2.184806;"Felipe II";"112";19;"241, 243, 246, 251";24
243;248;"BIKE";41.418208;2.1903740000000003;"Palència";"31";18;"128, 238, 240, 423";25
244;249;"BIKE";41.425216;2.188997;"Açores";"1";18;"246, 250, 251, 391";26
245;250;"BIKE";41.425905;2.19115;"Portugal";"3";24;"249, 252, 253, 254";23
246;251;"BIKE";41.425405;2.1852259999999997;"Cardenal Tedeschini";"13";27;"243, 246, 247, 249";30
247;252;"BIKE";41.429953000000005;2.1931849999999997;"Rambla Onze de Setembre";"31";18;"249, 250, 254, 391";30
248;253;"BIKE";41.429977;2.191821;"Onze de Setembre";"37";18;"250, 252, 254";25
249;254;"BIKE";41.429984999999995;2.190163;"Gran de Sant Andreu";"69";25;"250, 252, 253, 255";24
250;255;"BIKE";41.431183000000004;2.185852;"Irlanda";"11";27;"253, 254, 274";22
251;256;"BIKE";41.435998;2.189524;"Malats";"28";25;"255, 259, 285";25
252;257;"BIKE";41.433896999999995;2.1896139999999997;"Sant Adrià";"2";25;"253, 254, 255, 256";27
253;258;"BIKE";41.442167;2.193032;"Fernando Pessoa";"41";15;"256, 259, 263";23
254;259;"BIKE";41.439109;2.185818;"Carrer de Bartrina";"14";25;"256, 258, 267";26
255;260;"BIKE";41.43618;2.192952;"Plaça de l'Estació";"6";19;"256, 263, 264";26
256;261;"BIKE";41.382206;2.160644;"Villarroel";"39";35;"70, 71, 84, 90";26
257;262;"BIKE";41.379821;2.1524959999999997;"Rocafort";"103";40;"81, 82, 111, 191";30
258;263;"BIKE";41.437814;2.191039;"Pg.Torras i Bages";"29";27;"256, 260, 264";17
259;264;"BIKE";41.439949;2.1970330000000002;"República Dominicana";"25";19;"263, 267, 268, 344";31
260;265;"BIKE";41.385397;2.158743;"Casanovas";"67";40;"80, 84, 110, 209";18
261;266;"BIKE";41.426840999999996;2.184238;"Concepció Arenal";"176";37;"263, 264, 268, 344";24
262;267;"BIKE";41.443395;2.190623;"Passeig Torras i Bages";"129";24;"258, 263, 264, 268";25
263;268;"BIKE";41.445705;2.1928919999999996;"Fernando Pessoa";"72";23;"263, 264, 267, 271";24
264;269;"BIKE";41.448128000000004;2.1928259999999997;"Via Barcino";"121";23;"264, 268, 270, 271";27
265;270;"BIKE";41.448628;2.1897599999999997;"Crta. de Ribes (Trinitat Vella)";"77";24;"267, 268, 269, 271";27
266;271;"BIKE";41.450634;2.192335;"Via Barcino";"69";18;"267, 268, 269, 270";20
267;272;"BIKE";41.432552;2.1842900000000003;"Concepció Arenal";"281";27;"255, 273, 274, 298";26
268;273;"BIKE";41.430403999999996;2.183382;"Avda. Meridiana";"404";27;"255, 272, 274, 275";35
269;274;"BIKE";41.430071000000005;2.18473;"Rambla Fabra i Puig";"67";27;"254, 255, 272, 273";31
270;275;"BIKE";41.430693;2.182225;"Rio de Janeiro";"3";27;"272, 273, 274, 298";33
271;276;"BIKE";41.412163;2.165275;"Plaça Alfons X el Savi / Ronda del Guinardó";"";87;"231, 277, 278, 318";25
272;277;"BIKE";41.408284;2.16905;"Travessera de Gràcia";"328";59;"28, 122, 123, 231";25
273;278;"BIKE";41.409815;2.171621;"Travessera de Gràcia";"368";55;"20, 21, 28, 277";24
274;279;"BIKE";41.415951;2.174564;"Mas Casanovas";"137";70;"278, 280, 281, 318";25
275;280;"BIKE";41.413986;2.1778419999999996;"Sant Antoni Mª Claret";"290";37;"20, 21, 164, 239";23
276;281;"BIKE";41.418088;2.176313;"Escornalbou";"51";45;"241, 242, 243, 279";22
277;282;"BIKE";41.427561;2.1660220000000003;"Font d'en Fargas";"1";88;"291, 292, 293, 295";25
278;283;"BIKE";41.42968;2.16157;"Carrer Fulton";"1";88;"282, 291, 292, 293";20
279;284;"BIKE";41.389503000000005;2.131454;"Ada. Diagonal";"652";60;"203, 205, 206, 212";25
280;285;"BIKE";41.436708;2.186059;"Malats";"98";25;"256, 259, 272";23
281;286;"BIKE";41.403103;2.1914279999999997;"Bolívia";"76";18;"42, 44, 142, 143";19
282;287;"BIKE";41.389171000000005;2.168113;"Gran Via";"632";32;"61, 64, 66, 406";11
283;288;"BIKE";41.429636;2.174487;"Pl. Virrei Amat";"";63;"244, 291, 292, 293";28
284;289;"BIKE";41.416828;2.1910220000000002;"Múrcia";"64";18;"127, 238, 240, 248";26
285;290;"BIKE";41.437094;2.1740470000000003;"Plaça dels Jardins d'Alfàbia";"1";61;"294, 295, 299, 301";26
286;291;"BIKE";41.425897;2.17505;"Cubelles";"2";55;"242, 244, 282, 292";24
287;292;"BIKE";41.430036;2.171974;"Amilcar";"1";63;"282, 291, 293, 300";25
288;293;"BIKE";41.428388;2.1631009999999997;"Granollers";"1";95;"282, 291, 292, 295";23
289;294;"BIKE";41.436372999999996;2.1706779999999997;"Seu del Districte (Nou Barris)";"";61;"290, 295, 299, 301";25
290;295;"BIKE";41.43345;2.1715;"Sant Iscle";"60";61;"282, 292, 294, 301";24
291;296;"BIKE";41.436505;2.183877;"Carrer de Rosselló i Porcel";"1";25;"259, 272, 285, 298";31
292;297;"BIKE";41.438864;2.176822;"Carrer Turó Blau";"1";45;"290, 296, 298, 299";22
293;298;"BIKE";41.43463;2.181747;"Andreu Nin";"22";45;"275, 296, 300";30
294;299;"BIKE";41.433965;2.175199;"Carrer de l'Escultor Ordóñez";"55";45;"294, 295, 297, 301";25
295;300;"BIKE";41.431593;2.176909;"Carrer de Maladeta";"1";47;"275, 298, 299, 301";17
296;301;"BIKE";41.437053000000006;2.169644;"Marie Curie";"8";61;"290, 294, 295, 299";25
297;302;"BIKE";41.39065;2.111615;"Cavallers";"41";73;"303, 304, 335, 336";27
298;303;"BIKE";41.393341;2.1150759999999997;"Cavallers";"67";101;"302, 304, 335, 336";25
299;304;"BIKE";41.390208;2.121029;"Manuel Girona";"7";63;"203, 204, 305, 335";30
300;305;"BIKE";41.387498;2.123637;"Diagonal";"680";63;"203, 204, 305, 306";25
301;306;"BIKE";41.385465;2.122912;"Doctor Salvador Cardenal";"7";63;"199, 204, 305, 310";26
302;307;"BIKE";41.379135;2.113505;"Pintor Ribalta";"";50;"308, 309, 310, 311";30
303;308;"BIKE";41.376788;2.113864;"Cardenal Reig";"11";50;"307, 309, 310, 311";23
304;309;"BIKE";41.376740000000005;2.1169729999999998;"Sant Ramón Nonat";"26";47;"307, 308, 310, 311";27
305;310;"BIKE";41.381223;2.119077;"Josep Samitier";"";47;"306, 307, 309, 311";26
306;311;"BIKE";41.378638;2.120393;"Gallego-Arístides Maillol";"2";52;"307, 308, 309, 310";22
307;312;"BIKE";41.379046;2.123253;"Arizala";"77";50;"193, 199, 311, 353";32
308;313;"BIKE";41.375366;2.1298470000000003;"Feliu de Casanova";"1";42;"185, 188, 314, 354";25
309;314;"BIKE";41.37836;2.129737;"Rambla del Brasil";"44";46;"192, 193, 313, 354";25
310;315;"BIKE";41.415617;2.181966;"Guinardó";"32";33;"177, 239, 241, 280";26
311;316;"BIKE";41.422212;2.198316;"Cantàbria";"55";13;"128, 130, 131, 317";25
312;317;"BIKE";41.425565999999996;2.2006930000000002;"Rambla Prim";"256";12;"130, 131, 316, 391";27
313;318;"BIKE";41.413406;2.1713310000000003;"Cartagena";"83";59;"21, 276, 278, 279";25
314;319;"BIKE";41.393713;2.145584;"Saguès";"1";65;"101, 102, 216, 219";32
315;320;"BIKE";41.401118;2.147989;"Vía Augusta";"21";80;"217, 221, 230, 321";25
316;321;"BIKE";41.403054;2.144549;"Carrer de Sant Hermenegild";"30";80;"217, 230, 322, 326";24
317;322;"BIKE";41.400977000000005;2.1390700000000002;"Santaló";"165";106;"217, 323, 324, 328";26
318;323;"BIKE";41.397996;2.1387169999999998;"Vallmajor";"13";79;"214, 215, 217, 324";23
319;324;"BIKE";41.396938;2.136258;"Reina Victoria";"31";79;"214, 215, 322, 323";27
320;325;"BIKE";41.39493;2.130325;"Alt de Gironella";"13";82;"212, 214, 331, 333";23
321;326;"BIKE";41.407384;2.1383;"Balmes";"409";110;"321, 327, 328, 330";31
322;327;"BIKE";41.405;2.13453;"Reus";"23";106;"321, 322, 326, 328";21
323;328;"BIKE";41.40293;2.13427;"Artesa de Segre";"2";106;"321, 322, 327, 329";26
324;329;"BIKE";41.402879;2.128541;"Carrer de les Escoles Pies";"99";130;"327, 328, 330, 332";25
325;330;"BIKE";41.400587;2.1306580000000004;"Doctor Carulla";"44";130;"328, 329, 331, 332";24
326;331;"BIKE";41.397059999999996;2.1280099999999997;"Castellnou";"65";82;"325, 332, 333, 335";31
327;332;"BIKE";41.399822;2.1280900000000003;"Doctor Roux";"86";82;"329, 330, 331, 333";17
328;333;"BIKE";41.395632;2.125106;"Passatge de Senillosa";"3";82;"325, 331, 335, 336";27
329;334;"BIKE";41.400721999999995;2.123268;"Via Augusta";"348";138;"331, 332, 337, 338";26
330;335;"BIKE";41.393639;2.123224;"Santa Amèlia";"2";96;"212, 304, 333, 336";25
331;336;"BIKE";41.395274;2.1209729999999998;"Caponata";"10";96;"333, 335, 337, 338";26
332;337;"BIKE";41.398719;2.120422;"Carme Karr";"12";96;"333, 334, 336, 338";23
333;338;"BIKE";41.397572;2.1195060000000003;"Avinguda de J.Foix";"63";96;"333, 334, 336, 337";32
334;339;"BIKE";41.401662;2.205277;"Ramon Turró";"246";9;"153, 154, 165, 382";23
335;340;"BIKE";41.436145;2.204634;"Sant Adrià";"113";28;"264, 341, 343, 344";24
336;341;"BIKE";41.434191;2.205886;"Passeig Enric Sanchís";"33";28;"264, 340, 343, 344";24
337;342;"BIKE";41.403502;2.193702;"Roc Boronat";"134";18;"142, 152, 153, 393, 428";25
338;343;"BIKE";41.438886;2.199598;"Campana de la Maquinista";"";19;"260, 264, 340, 344";26
339;344;"BIKE";41.443127000000004;2.199538;"Ciutat d'Asunción";"73";23;"260, 263, 264, 343";22
340;345;"BIKE";41.363093;2.139771;"Pl. Teresa de Claramunt";"";48;"179, 180, 346, 351";31
341;346;"BIKE";41.360654;2.139132;"Carrer de la Foneria";"33";48;"345, 347, 348, 349";30
342;347;"BIKE";41.359496;2.14182;"Alts Forns";"77";35;"345, 346, 348, 349";31
343;348;"BIKE";41.357067;2.141563;"Jardins de Can Ferrero";"";13;"345, 346, 347, 349";26
344;349;"BIKE";41.357338;2.137172;"Carrer de l'Energia";"2";13;"345, 347, 348, 351";32
345;350;"BIKE";41.391833;2.14812;"Villarroel";"208";69;"88, 90, 101, 109";31
346;351;"BIKE";41.362134999999995;2.135637;"Jane Addams";"26";48;"179, 345, 352, 404";30
347;352;"BIKE";41.36335;2.134144;"Radi";"10";48;"179, 346, 351, 404";30
348;353;"BIKE";41.375414;2.123191;"Munné";"6";47;"309, 311, 314, 354";24
349;354;"BIKE";41.37592;2.13008;"Rambla del Brasil";"5";46;"188, 312, 313, 314";26
350;355;"BIKE";41.37211;2.12859;"Carreras i Candi";"89";39;"184, 313, 353, 354";23
351;356;"BIKE";41.413425;2.163411;"Camèlies";"73";115;"227, 231, 276";25
352;357;"BIKE";41.410538;2.1581;"Cardener";"82";104;"227, 228, 231, 356";27
353;358;"BIKE";41.387225;2.1792700000000003;"Gombau";"24";16;"34, 35, 36, 390";26
354;359;"BIKE";41.390021000000004;2.177572;"Méndez Núñez";"16";16;"5, 358, 362, 363";23
355;360;"BIKE";41.395213;2.172984;"Bailén";"62";42;"15, 23, 362, 413";26
356;361;"BIKE";41.376292;2.178553;"Passeig de Colom";"";5;"56, 57, 376, 410";30
357;362;"BIKE";41.397006;2.17057;"Bailén";"100";42;"15, 22, 123, 360";29
358;363;"BIKE";41.39076;2.1744;"Bruc";"20";32;"23, 34, 105, 359, 412";27
359;364;"BIKE";41.393240000000006;2.16343;"Passeig de Gràcia";"61";50;"60, 72, 92, 374";31
360;365;"BIKE";41.387499;2.14702;"Viladomat";"244";51;"67, 75, 89, 109";29
361;366;"BIKE";41.393037;2.14358;"Pau Casals";"1";69;"74, 101, 102, 208";25
362;367;"BIKE";41.385057;2.137331;"Sentmenat";"39";57;"75, 196, 197, 201";27
363;368;"BIKE";41.396815000000004;2.175714;"Diputació";"350";21;"1, 360, 362, 387";25
364;369;"BIKE";41.400168;2.1779479999999998;"Consell de Cent";"482";28;"1, 22, 24, 30";25
365;370;"BIKE";41.403735;2.172987;"Sardenya";"234";49;"18, 19, 22, 120";29
366;371;"BIKE";41.404027;2.181264;"Carrer dels Enamorats";"49";28;"26, 30, 218, 369";32
367;372;"BIKE";41.400166999999996;2.1843619999999997;"Ribes";"77";18;"1, 16, 119, 426";25
368;373;"BIKE";41.375073;2.161305;"Av. Paral.lel";"132";35;"85, 86, 113, 235";35
369;374;"BIKE";41.395;2.1612299999999998;"Passeig de Gràcia";"89";50;"27, 68, 72, 92";29
370;375;"BIKE";41.372153999999995;2.180701;"World Trade Center";"";1;"56, 57, 114, 376, 410";24
371;376;"BIKE";41.371663;2.180302;"World Trade Center";"";1;"56, 57, 361, 375, 378";23
372;377;"BIKE";41.37747;2.183737;"Pl. Ictíneo";"";1;"37, 38, 126, 402";30
373;378;"BIKE";41.378516;2.176716;"Pl.Joaquim Xira i Palau";"1";5;"56, 57, 114, 425";17
374;379;"BIKE";41.381709;2.177308;"Pl. Sant Miquel";"4";5;"37, 55, 378, 401";16
375;380;"BIKE";41.385463;2.174252;"Duran i Bas";"2";32;"34, 36, 53, 395";21
376;381;"BIKE";41.381607;2.167667;"Agustí Duran i Sanpere";"10";24;"51, 59, 388, 415";30
377;382;"BIKE";41.403938000000004;2.2041880000000003;"Lope de Vega";"79";10;"150, 154, 155, 162";27
378;384;"BIKE";41.380708;2.146793;"Vilamarí";"85";44;"81, 87, 100, 191";25
379;385;"BIKE";41.387978000000004;2.155266;"Casanova";"119";45;"76, 89, 90, 110";28
380;386;"BIKE";41.375085999999996;2.156848;"Av.Paral.lel";"164";40;"85, 112, 236, 237";23
381;387;"BIKE";41.395796000000004;2.178784;"Nàpols";"125";21;"1, 3, 119, 414";25
382;388;"BIKE";41.380593;2.167418;"Riera Alta";"6";24;"54, 58, 148, 381";19
383;389;"BIKE";41.38739;2.1875;"Recinte Parc de la Ciutadella";"";11;"6, 14, 47, 118";24
384;390;"BIKE";41.386955;2.18195;"Comerç";"36";16;"7, 9, 389";26
385;391;"BIKE";41.422872999999996;2.191204;"Sagrera";"74";18;"238, 248, 289, 423";25
386;392;"BIKE";41.390595000000005;2.190681;"Ramon Turró";"4";11;"45, 47, 118, 409";19
387;393;"BIKE";41.402177;2.197653;"Llacuna";"86";16;"142, 152, 153, 428";30
388;394;"BIKE";41.38733;2.16305;"Diputació";"226";41;"79, 80, 209";26
389;395;"BIKE";41.386009;2.170212;"Pl. Catalunya";"22";32;"62, 63, 64, 65";31
390;396;"BIKE";41.389028;2.196844;"Joan Miró";"2";1;"49, 117, 397, 407";33
391;397;"BIKE";41.388894;2.199334;"Av. Del Litoral";"24";1;"69, 117, 170, 172";25
392;398;"BIKE";41.381011;2.193502;"Passeig Marítim de la Barceloneta";"";0;"11, 12, 124, 424";23
393;400;"BIKE";41.36958;2.188017;"Moll Oriental";"";5;"31, 32, 33, 41, 124";25
394;401;"BIKE";41.381240999999996;2.181838;"Pl. Antonio López (Via Laietana) annexa a la 37";"";5;"37, 115, 126, 402";22
395;402;"BIKE";41.380565000000004;2.1821189999999997;"Passeig de Colom";"";5;"37, 38, 377, 401";23
396;404;"BIKE";41.365373999999996;2.1330869999999997;"Juan Gris";"28";16;"179, 180, 184, 352";26
397;405;"BIKE";41.38551;2.1519999999999997;"Comte Borrell";"198";45;"83, 87, 110, 225";27
398;406;"BIKE";41.386511999999996;2.164597;"Gran Via de Les Corts Catalanes";"592";41;"62, 78, 79, 287";32
399;407;"BIKE";41.388471;2.1928349999999996;"Ramon Trias Fargas";"19";1;"46, 47, 69, 392";25
400;408;"BIKE";41.388609;2.19231;"Villena, 11";"11";1;"46, 47, 392, 409";33
401;409;"BIKE";41.392358;2.192478;"Joan d'Àustria";"31 B";11;"45, 47, 149, 392";17
402;410;"BIKE";41.376433;2.1787099999999997;"Passeig de Colom, s/n";"";5;"56, 57, 361, 375";31
403;412;"BIKE";41.389012;2.1726669999999997;"Pl. Urquinaona";"3";32;"34, 64, 65, 105, 363";25
404;413;"BIKE";41.393512;2.170718;"Bruc";"66";42;"15, 23, 25, 360";26
405;414;"BIKE";41.393744;2.1764509999999997;"Casp";"67";21;"23, 360, 363, 387";28
406;415;"BIKE";41.379374;2.168921;"Rambla del Raval";"13";24;"54, 187, 388, 416";25
407;416;"BIKE";41.378134;2.16965;"Rambla del Raval";"20";24;"54, 187, 388, 415";25
408;418;"BIKE";41.390943;2.1802509999999997;"Passeig de Lluís Companys";"";16;"6, 7, 359, 419";24
409;419;"BIKE";41.391299;2.180828;"Passeig de Lluís Companys";"";16;"4, 6, 8, 418";31
410;420;"BIKE";41.374213;2.148082;"Gran Via";"361";61;"93, 94, 95, 96";25
411;421;"BIKE";41.377845;2.13923;"Plaça de Joan Peiró";"";45;"98, 100, 188, 210";29
412;423;"BIKE";41.420201;2.189532;"Carrer d'Hondures";"32";18;"240, 248, 289, 391";27
413;424;"BIKE";41.379632;2.192662;"Passeig Marítim de la Barceloneta, devant del 5-7";"5";0;"11, 41, 124, 398";25
414;425;"BIKE";41.37652;2.1749;"Carrer de Cervelló";"5";24;"50, 56, 57, 114";25
415;426;"BIKE";41.398305;2.183023;"Carrer de Ribes";"59";21;"1, 24, 119, 372";30
416;427;"BIKE";41.375336;2.168007;"Carrer de Sant Pau";"119";24;"50, 148, 187, 232";20
417;428;"BIKE";41.398389;2.1962610000000002;"Carrer Pujades";"103";11;"142, 149, 153, 161";27
418;451;"BIKE-ELECTRIC";41.37445;2.159668;"(PK) C/ JAUME FABRA";"12";35;"453";12
419;452;"BIKE-ELECTRIC";41.398747;2.186289;"(PK) C/ PADILLA";"159";18;"459, 476";10
420;453;"BIKE-ELECTRIC";41.379563;2.16204;"(PK) C/ URGELL";"14";35;"451, 480";10
421;454;"BIKE-ELECTRIC";41.402448;2.2041310000000003;"(PK) C/ BILBAO";"24";18;"469";12
422;455;"BIKE-ELECTRIC";41.388965999999996;2.19917;"(PK) AV. DEL LITORAL";"34";1;"467, 479";10
423;456;"BIKE-ELECTRIC";41.389853;2.128581;"(PK) C/ DE FLOS I CALCAT";"2";60;"458, 470";12
424;457;"BIKE-ELECTRIC";41.401519;2.134235;"(PK) C/ DE JOSEP BALARÍ";"2";106;"465, 470";12
425;458;"BIKE-ELECTRIC";41.384344;2.1220849999999998;"(PK) AV. JOAN XXIII";"23-25";60;"456, 471";12
426;459;"BIKE-ELECTRIC";41.393941;2.1814430000000002;"(PK) C/ D'ALÍ BEI";"54";21;"452, 492";12
427;460;"BIKE-ELECTRIC";41.385702;2.177316;"(PK) AV. FRANCESC CAMBÓ";"10";16;"485, 493";12
428;461;"BIKE-ELECTRIC";41.384111;2.1427400000000003;"(PK) AV. JOSEP TARRADELLAS";"46";51;"452, 481";12
429;462;"BIKE-ELECTRIC";41.390125;2.143221;"(PK) AV. JOSEP TARRADELLAS";"139";51;"461, 487";10
430;463;"BIKE-ELECTRIC";41.375244;2.169795;"(PK) C/ DE L´ABAT SAFONT";"2";1;"453, 480";10
431;464;"BIKE-ELECTRIC";41.427727000000004;2.177205;"(PK) C/ DE RAMON ALBÓ, 77s";"77";42;"468, 488";12
432;465;"BIKE-ELECTRIC";41.40542;2.142456;"(PK) RDA. DEL GENERAL MITRE";"203";76;"457, 472";12
433;466;"BIKE-ELECTRIC";41.415745;2.180684;"(PK) PG. MARAGALL";"54";33;"475, 488";12
434;467;"BIKE-ELECTRIC";41.38582;2.1941349999999997;"(PK) C/ DEL DR. AIGUADER";"86-88";1;"455, 479";12
435;468;"BIKE-ELECTRIC";41.430201000000004;2.187974;"(PK) C/ DE LES MONGES";"2";27;"464, 488";12
436;469;"BIKE-ELECTRIC";41.404362;2.197132;"(PK) RAMBLA DEL POBLENOU";"130";32;"454, 476";12
437;470;"BIKE-ELECTRIC";41.397921000000004;2.125411;"(PK) C/ CARDENAL DE SENTMENAT";"8";82;"457, 471";12
438;471;"BIKE-ELECTRIC";41.39415;2.114973;"(PK) C/ MARQUÈS DE MULHACÉN";"51";101;"458, 470";12
439;472;"BIKE-ELECTRIC";41.407353;2.151341;"(PK) C/ DEL TORRENT DE L´OLLA";"221";72;"465, 474";10
440;473;"BIKE-ELECTRIC";41.404459;2.214978;"(PK) PG. DE GARCIA FÀRIA";"71";1;"454, 482";12
441;474;"BIKE-ELECTRIC";41.3989;2.153668;"(PK) PL. GAL·LA PLACÍDIA";"2";59;"483";10
442;475;"BIKE-ELECTRIC";41.408528000000004;2.1693849999999997;"(PK) C/ DE LA MARINA";"345";59;"483, 496";11
443;476;"BIKE-ELECTRIC";41.402459;2.19042;"(PK) C/ DE BADAJOZ";"168";18;"452, 469";12
444;477;"BIKE-ELECTRIC";41.376647999999996;2.178745;"(PK) PG. DE COLOM";"1";1;"478, 493";10
445;478;"BIKE-ELECTRIC";41.3798;2.1891;"(PK) C/ DEL BALUARD";"27";1;"467, 477";12
446;479;"BIKE-ELECTRIC";41.387298;2.196595;"(PK) C/ DE LA MARINA";"13-17";1;"455, 467";12
447;480;"BIKE-ELECTRIC";41.381516;2.170239;"(PK) C/ DELS FLORISTES DE LA RAMBLA";"8";24;"463, 493";12
448;481;"BIKE-ELECTRIC";41.383036;2.150337;"(PK) C/ DE VALÈNCIA";"77";44;"461, 495";12
449;482;"BIKE-ELECTRIC";41.413059999999994;2.22123;"(PK) PL. D'ERNEST LLUCH I MARTIN";"SN";1;"473, 489";12
450;483;"BIKE-ELECTRIC";41.401752;2.160748;"(PK) C/ DE SIRACUSA";"39-51";58;"474";12
451;484;"BIKE-ELECTRIC";41.388101;2.1669970000000003;"(PK) RAMBLA CATALUNYA - RDA. UNIVERSITAT";"SN";40;"485, 494";12
452;485;"BIKE-ELECTRIC";41.389914000000005;2.173239;"(PK) PLAÇA URQUINAONA";"SN";32;"460, 492";10
453;486;"BIKE-ELECTRIC";41.396934;2.1594450000000003;"(PK) PG. DE GRÀCIA - DIAGONAL";"";50;"451, 474";12
454;487;"BIKE-ELECTRIC";41.38921;2.154;"(PK) PL. DE FERRER I CAJIGAL";"";45;"462, 481";12
455;488;"BIKE-ELECTRIC";41.423976;2.184391;"(PK) C/ DE CIENFUEGOS";"13";18;"464, 468";12
456;489;"BIKE-ELECTRIC";41.409532;2.188282;"(PK) PLAÇA CANONGE RODÓ";"SN";40;"469, 482";11
457;491;"BIKE-ELECTRIC";41.37252;2.12898;"(PK) C/ DE CARRERAS I CANDI";"65";61;"458, 495";12
458;492;"BIKE-ELECTRIC";41.394232;2.175278;"PL. DE TETUAN";"8-9";21;"459, 485";24
459;493;"BIKE-ELECTRIC";41.381859999999996;2.177086;"PL. SANT MIQUEL";"4";8;"460, 477";23
460;494;"BIKE-ELECTRIC";41.389480999999996;2.1653569999999998;"RAMBLA CATALUNYA";"31";41;"484, 485";24
461;495;"BIKE-ELECTRIC";41.377190999999996;2.149283;"C/ DIPUTACIÓ - TARRAGONA";"SN";45;"451, 481";24
462;496;"BIKE-ELECTRIC";41.404871;2.175141;"C/ DE PROVENÇA";"445";21;"452, 475";24
463;1;"BIKE";41.397952000000004;2.180042;"Gran Via Corts Catalanes";"760";21;"24, 369, 387, 426";27
464;2;"BIKE";41.39553;2.17706;"Roger de Flor/ Gran Vía";"126";21;"360, 368, 387, 414";27
465;3;"BIKE";41.394071999999994;2.183441;"Nàpols";"82";22;"4, 6, 119, 419";25
466;4;"BIKE";41.39347;2.18149;"Ribes";"13";21;"3, 5, 359, 419";17
467;5;"BIKE";41.391075;2.180223;"Pg Lluís Companys";"11";16;"6, 7, 359, 418";36
468;6;"BIKE";41.391349;2.1806099999999997;"Pg Lluís Companys";"18";16;"5, 8, 359, 419";35
469;7;"BIKE";41.388856;2.183251;"Pg Lluís Companys";"1";16;"8, 118, 389";26
470;8;"BIKE";41.389088;2.183568;"Pg Lluís Companys";"2";11;"6, 118, 389";21
471;9;"BIKE";41.384532;2.184921;"Marquès de l'Argentera";"13";11;"14, 40, 115, 389, 390";24
472;11;"BIKE";41.381689;2.193914;"Passeig Marítim";"19";1;"116, 124, 125, 396";21
473;12;"BIKE";41.384538;2.195679;"Pg Marítim Barceloneta";"23";0;"11, 13, 116, 396";28
474;13;"BIKE";41.386860999999996;2.195761;"Avinguda Litoral";"16";1;"11, 12, 46, 69";33
475;14;"BIKE";41.384675;2.1850389999999997;"Avinguda del Marques Argentera";"15";11;"9, 40, 115, 389, 390";24
476;15;"BIKE";41.394812;2.171189;"Girona";"68";40;"23, 25, 362, 413";16
477;16;"BIKE";41.398270000000004;2.1867080000000003;"Av. Meridiana";"47";18;"17, 44, 48, 372";19
478;17;"BIKE";41.398237;2.186711;"Av. Meridiana";"47";18;"16, 48, 211, 372";18
479;18;"BIKE";41.406086;2.1741669999999997;"Rosselló";"453";49;"19, 28, 120, 370";25
480;19;"BIKE";41.403282;2.1707259999999997;"Rosselló";"354";49;"18, 22, 29, 370";28
481;20;"BIKE";41.410166;2.175759;"Cartagena";"308";59;"21, 28, 164, 177, 278";20
482;21;"BIKE";41.410897;2.17402;"Sant Antoni Maria Claret";"214";59;"20, 28, 164, 278";21
483;22;"BIKE";41.401684;2.17568;"Sardenya";"292";28;"29, 120, 369, 370";19
484;23;"BIKE";41.392526000000004;2.171812;"Bruc";"45";42;"15, 360, 363, 413";25
485;24;"BIKE";41.400659000000005;2.1791110000000002;"Marina";"199";30;"1, 30, 369, 426";27
486;25;"BIKE";41.395179;2.168294;"Bruc";"102";42;"15, 123, 362, 413";20
487;26;"BIKE";41.407035;2.181981;"Dos Maig";"230";28;"120, 121, 177, 371";18
488;27;"BIKE";41.396881;2.164415;"Provença";"322";49;"123, 189, 224, 374";20
489;28;"BIKE";41.405421999999994;2.17064;"Sardenya";"362";45;"18, 20, 122, 277";23
490;29;"BIKE";41.401101000000004;2.170082;"Provença";"388";50;"19, 224, 360, 370";17
491;30;"BIKE";41.402046;2.182286;"Diagonal";"231";28;"24, 218, 369, 371";20
492;31;"BIKE";41.37481;2.18895;"Plaça del Mar";"72";1;"33, 39, 41, 124";17
493;32;"BIKE";41.373698;2.188927;"Plaça del Mar";"1";1;"31, 33, 124, 400";27
494;33;"BIKE";41.376862;2.190773;"Pontevedra";"58B";1;"31, 41, 124, 424";18
495;34;"BIKE";41.387074;2.175247;"Sant Pere Més Alt";"4";16;"36, 105, 359, 380";17
496;35;"BIKE";41.413592;2.2211529999999997;"Sant Ramon de Penyafort";"1";1;"157, 158, 159, 160";25
